[
  {
    "name": "太古城中心",
    "address": "太古城中心第二期103B舖",
    "phone": "25600003",
    "district": "太古",
    "hours": "週一至週四: 10:30-22:00, 週五: 10:30-22:30, 週六: 10:00-22:30, 週日及公眾假期: 10:00-22:00"
  },
  {
    "name": "北角匯二期",
    "address": "北角匯二期1樓114-115號舖",
    "phone": "27309618",
    "district": "北角",
    "hours": "週一至週五: 11:00-22:00, 週六、日及公眾假期: 10:30-22:30"
  },
  {
    "name": "荃灣愉景新城",
    "address": "荃灣愉景新城1樓110-112號舖",
    "phone": "24980238",
    "district": "荃灣",
    "hours": "週一至週四: 10:30-22:00, 週五: 10:30-22:30, 週六: 10:00-22:30, 週日及公眾假期: 10:00-22:00"
  },
  {
    "name": "屯門市廣場二期",
    "address": "屯門市廣場二期1樓1155-1156號舖",
    "phone": "24411884",
    "district": "屯門",
    "hours": "週一至週四: 10:30-22:00, 週五: 10:30-22:30, 週六: 10:00-22:30, 週日及公眾假期: 10:00-22:00"
  },
  {
    "name": "沙田新城市廣場三期",
    "address": "沙田新城市廣場三期3樓301號舖",
    "phone": "26029738",
    "district": "沙田",
    "hours": "週一至週四: 10:30-22:00, 週五: 10:30-22:30, 週六: 10:00-22:30, 週日及公眾假期: 10:00-22:00"
  },
  {
    "name": "將軍澳東港城",
    "address": "將軍澳東港城2樓235-236號舖",
    "phone": "27027238",
    "district": "將軍澳",
    "hours": "週一至週四: 10:30-22:00, 週五: 10:30-22:30, 週六: 10:00-22:30, 週日及公眾假期: 10:00-22:00"
  },
  {
    "name": "觀塘apm",
    "address": "觀塘apm 5樓L5-01號舖",
    "phone": "23493228",
    "district": "觀塘",
    "hours": "週一至週日及公眾假期: 11:00-24:00"
  },
  {
    "name": "尖沙咀K11 MUSEA",
    "address": "尖沙咀K11 MUSEA 6樓614-615號舖",
    "phone": "27239988",
    "district": "尖沙咀",
    "hours": "週一至週四: 10:30-22:00, 週五: 10:30-22:30, 週六: 10:00-22:30, 週日及公眾假期: 10:00-22:00"
  },
  {
    "name": "九龍灣德福廣場二期",
    "address": "九龍灣德福廣場二期6樓607-608號舖",
    "phone": "27557228",
    "district": "九龍灣",
    "hours": "週一至週四: 10:30-22:00, 週五: 10:30-22:30, 週六: 10:00-22:30, 週日及公眾假期: 10:00-22:00"
  },
  {
    "name": "旺角朗豪坊",
    "address": "旺角朗豪坊13樓1302-1303號舖",
    "phone": "27707228",
    "district": "旺角",
    "hours": "週一至週四: 10:30-22:00, 週五: 10:30-22:30, 週六: 10:00-22:30, 週日及公眾假期: 10:00-22:00"
  },
  {
    "name": "元朗廣場",
    "address": "元朗廣場1樓122號舖",
    "phone": "24433228",
    "district": "元朗",
    "hours": "週一至週四: 10:30-22:00, 週五: 10:30-22:30, 週六: 10:00-22:30, 週日及公眾假期: 10:00-22:00"
  },
  {
    "name": "大埔超級城",
    "address": "大埔超級城C區2樓214號舖",
    "phone": "26653228",
    "district": "大埔",
    "hours": "週一至週四: 10:30-22:00, 週五: 10:30-22:30, 週六: 10:00-22:30, 週日及公眾假期: 10:00-22:00"
  }
]